[ {
    "sno" : "1001",
    "sna" : "大鵬華城",
    "tot" : "38",
    "sbi" : "10",
    "sarea" : "新店區",
    "mday" : "20200526133938",
    "lat" : "24.99116",
    "lng" : "121.53398",
    "ar" : "新北市新店區中正路700巷3號",
    "sareaen" : "Xindian Dist.",
    "snaen" : "Dapeng Community",
    "aren" : "No. 3, Lane 700 Chung Cheng Road, Xindian District",
    "bemp" : "28",
    "act" : "1"
  }, {
    "sno" : "1002",
    "sna" : "汐止火車站",
    "tot" : "56",
    "sbi" : "40",
    "sarea" : "汐止區",
    "mday" : "20200526133932",
    "lat" : "25.068914",
    "lng" : "121.662748",
    "ar" : "南昌街/新昌路口(西側廣場)",
    "sareaen" : "Xizhi Dist.",
    "snaen" : "Xizhi Railway Station",
    "aren" : "Nanchang St./Xinchang Rd.",
    "bemp" : "14",
    "act" : "1"
  }, {
    "sno" : "1003",
    "sna" : "汐止區公所",
    "tot" : "46",
    "sbi" : "22",
    "sarea" : "汐止區",
    "mday" : "20200526133925",
    "lat" : "25.064162",
    "lng" : "121.658301",
    "ar" : "新台五路一段/仁愛路口(新台五路側汐止地政事務所前機車停車場)",
    "sareaen" : "Xizhi Dist.",
    "snaen" : "Xizhi Dist. Office",
    "aren" : "Sec. 1, Xintai 5th Rd./Ren’ai Rd.",
    "bemp" : "22",
    "act" : "1"
  }, {
    "sno" : "1004",
    "sna" : "國泰綜合醫院",
    "tot" : "56",
    "sbi" : "4",
    "sarea" : "汐止區",
    "mday" : "20200526133853",
    "lat" : "25.07315",
    "lng" : "121.662555",
    "ar" : "建成路78號對面停車場",
    "sareaen" : "Xizhi Dist.",
    "snaen" : "Cathay General Hospital",
    "aren" : "No78, Jiancheng Rd",
    "bemp" : "52",
    "act" : "1"
  }, {
    "sno" : "1005",
    "sna" : "裕隆公園",
    "tot" : "40",
    "sbi" : "9",
    "sarea" : "新店區",
    "mday" : "20200526133930",
    "lat" : "24.979649",
    "lng" : "121.546319",
    "ar" : "寶中路/品牌路口(東南側)",
    "sareaen" : "Xindian Dist.",
    "snaen" : "Yulon Park",
    "aren" : "Baozhong Rd./",
    "bemp" : "29",
    "act" : "1"
  }, {
    "sno" : "1006",
    "sna" : "捷運大坪林站(5號出口)",
    "tot" : "94",
    "sbi" : "48",
    "sarea" : "新店區",
    "mday" : "20200526133915",
    "lat" : "24.982830",
    "lng" : "121.543620",
    "ar" : "中興路三段224號(對面)",
    "sareaen" : "Xindian Dist.",
    "snaen" : "MRT DaPingLin Station(Exit.5)",
    "aren" : "No. 224, Sec. 3, Zhongxing Rd., Xindian Dist.(opposite)",
    "bemp" : "45",
    "act" : "1"
  }, {
    "sno" : "1007",
    "sna" : "汐科火車站(北)",
    "tot" : "34",
    "sbi" : "12",
    "sarea" : "汐止區",
    "mday" : "20200526133923",
    "lat" : "25.064106",
    "lng" : "121.653019",
    "ar" : "大同路二段184巷/龍安路202巷(西側)(汐科火車站北站出口前)",
    "sareaen" : "Xizhi Dist.",
    "snaen" : "Xike Railway Station(North)",
    "aren" : "Ln. 184,Sec. 2, Datong Rd./Ln. 202,Long’an Rd.",
    "bemp" : "21",
    "act" : "1"
  }, {
    "sno" : "1008",
    "sna" : "興華公園",
    "tot" : "40",
    "sbi" : "12",
    "sarea" : "三重區",
    "mday" : "20200526133928",
    "lat" : "25.060125",
    "lng" : "121.483101",
    "ar" : "重陽路一段120巷/中華路2巷",
    "sareaen" : "Sanchong Dist.",
    "snaen" : "Xinghua Park",
    "aren" : "Ln. 120, Sec. 1, Chongyang Rd./Ln. 2, Zhonghua Rd.",
    "bemp" : "27",
    "act" : "1"
  }, {
    "sno" : "1009",
    "sna" : "三重國民運動中心",
    "tot" : "68",
    "sbi" : "7",
    "sarea" : "三重區",
    "mday" : "20200526133943",
    "lat" : "25.054391",
    "lng" : "121.488489",
    "ar" : "集美街/重新路四段184巷",
    "sareaen" : "Sanchong Dist.",
    "snaen" : "San chong Civil Sports Center",
    "aren" : "Jimei St., Sanchong Dist./Ln. 184, Sec. 4, Chongxin Rd.",
    "bemp" : "60",
    "act" : "1"
  }, {
    "sno" : "1010",
    "sna" : "捷運三重站(3號出口)",
    "tot" : "34",
    "sbi" : "2",
    "sarea" : "三重區",
    "mday" : "20200526133935",
    "lat" : "25.055883",
    "lng" : "121.484739",
    "ar" : "捷運路/捷運路37巷",
    "sareaen" : "Sanchong Dist.",
    "snaen" : "MRT Sanchong Sta. (Exit 3)",
    "aren" : "Jieyun Rd./Ln. 37, Jieyun Rd.",
    "bemp" : "32",
    "act" : "1"
  }, {
    "sno" : "1011",
    "sna" : "樟樹國小",
    "tot" : "48",
    "sbi" : "30",
    "sarea" : "汐止區",
    "mday" : "20200526133940",
    "lat" : "25.066688",
    "lng" : "121.640367",
    "ar" : "樟樹二路/樟樹一路141巷",
    "sareaen" : "Xizhi Dist.",
    "snaen" : "Zhangshu Elementary School",
    "aren" : "Zhangshu 2nd Rd./Ln. 141, Zhangshu 1st Rd.",
    "bemp" : "15",
    "act" : "1"
  }, {
    "sno" : "1012",
    "sna" : "金龍國小",
    "tot" : "52",
    "sbi" : "3",
    "sarea" : "汐止區",
    "mday" : "20200526133915",
    "lat" : "25.0688",
    "lng" : "121.628908",
    "ar" : "中興路/民族六街",
    "sareaen" : "Xizhi Dist.",
    "snaen" : "Jinlong Elementary School",
    "aren" : "Zhongxing Rd./Minzu 6th St.",
    "bemp" : "48",
    "act" : "1"
  }, {
    "sno" : "1013",
    "sna" : "白雲國小",
    "tot" : "46",
    "sbi" : "11",
    "sarea" : "汐止區",
    "mday" : "20200526133922",
    "lat" : "25.047578",
    "lng" : "121.618888",
    "ar" : "民權街二段90號",
    "sareaen" : "Xizhi Dist.",
    "snaen" : "Pai Yun Primary School",
    "aren" : "No.90, Sec. 2, Minquan St.",
    "bemp" : "34",
    "act" : "1"
  }, {
    "sno" : "1014",
    "sna" : "東勢宜興活動中心",
    "tot" : "52",
    "sbi" : "7",
    "sarea" : "汐止區",
    "mday" : "20200526133923",
    "lat" : "25.039031",
    "lng" : "121.624333",
    "ar" : "東勢街/芳園街",
    "sareaen" : "Xizhi Dist.",
    "snaen" : "Yixing-Dongshi Civic Center",
    "aren" : "Dongshi St./Fangyuan St.",
    "bemp" : "44",
    "act" : "1"
  }, {
    "sno" : "1015",
    "sna" : "後港公園",
    "tot" : "40",
    "sbi" : "3",
    "sarea" : "新莊區",
    "mday" : "20200526133918",
    "lat" : "25.025358",
    "lng" : "121.428348",
    "ar" : "建安街/建安街57巷",
    "sareaen" : "Xinzhuang Dist.",
    "snaen" : "Hougang Park",
    "aren" : "Ln. 57, Jian’an St./Jian’an St.",
    "bemp" : "37",
    "act" : "1"
  }, {
    "sno" : "1016",
    "sna" : "福營行政中心",
    "tot" : "42",
    "sbi" : "20",
    "sarea" : "新莊區",
    "mday" : "20200526133937",
    "lat" : "25.0241250",
    "lng" : "121.423870",
    "ar" : "四維路17號-20號",
    "sareaen" : "Xinzhuang Dist.",
    "snaen" : "Fuying Administration Center",
    "aren" : "No.17, Siwei Rd./No.20, Siwei Rd.",
    "bemp" : "22",
    "act" : "1"
  }, {
    "sno" : "1017",
    "sna" : "西盛公園",
    "tot" : "36",
    "sbi" : "6",
    "sarea" : "新莊區",
    "mday" : "20200526133939",
    "lat" : "25.017113",
    "lng" : "121.428048",
    "ar" : "新莊區西盛街/西盛街201巷",
    "sareaen" : "Xinzhuang Dist.",
    "snaen" : "Xisheng Park",
    "aren" : "Xisheng St./Ln. 201, Xisheng St.",
    "bemp" : "29",
    "act" : "1"
  }, {
    "sno" : "1018",
    "sna" : "忠誠里(北新路2段97巷)",
    "tot" : "40",
    "sbi" : "28",
    "sarea" : "新店區",
    "mday" : "20200526133928",
    "lat" : "24.974272",
    "lng" : "121.542779",
    "ar" : "北新路二段/北新路二段97巷",
    "sareaen" : "Xindian Dist.",
    "snaen" : "Zhongcheng Village (Ln. 97, Sec. 2, Beixin Rd)",
    "aren" : "Sec. 2, Beixin Rd./Ln. 97, Sec. 2, Beixin Rd.",
    "bemp" : "10",
    "act" : "1"
  }, {
    "sno" : "1019",
    "sna" : "仁愛廣場",
    "tot" : "50",
    "sbi" : "8",
    "sarea" : "蘆洲區",
    "mday" : "20200526133935",
    "lat" : "25.090565",
    "lng" : "121.471621",
    "ar" : "民權路139號旁",
    "sareaen" : "Luzhou Dist.",
    "snaen" : "Renai Square",
    "aren" : "No.139, Minquan Rd.",
    "bemp" : "42",
    "act" : "1"
  }, {
    "sno" : "1020",
    "sna" : "重陽國小",
    "tot" : "42",
    "sbi" : "6",
    "sarea" : "三重區",
    "mday" : "20200526133941",
    "lat" : "25.066245 ",
    "lng" : "121.484337 ",
    "ar" : "中正北路/三民街175巷",
    "sareaen" : "Sanchong Dist.",
    "snaen" : "Chong Yang Elementary School",
    "aren" : "Zhongzheng N. Rd./Ln. 175, Sanmin St.",
    "bemp" : "36",
    "act" : "1"
  }, {
    "sno" : "1021",
    "sna" : "明志國中",
    "tot" : "50",
    "sbi" : "24",
    "sarea" : "三重區",
    "mday" : "20200526133928",
    "lat" : "25.063396",
    "lng" : "121.488982",
    "ar" : "中正北路107號",
    "sareaen" : "Sanchong Dist.",
    "snaen" : "Mingzhi Junior High School",
    "aren" : "No.107, Zhongzheng N. Rd",
    "bemp" : "25",
    "act" : "1"
  }, {
    "sno" : "1022",
    "sna" : "三重商工",
    "tot" : "64",
    "sbi" : "43",
    "sarea" : "三重區",
    "mday" : "20200526133919",
    "lat" : "25.068681",
    "lng" : "121.480705",
    "ar" : "中正北路/中正北路276巷",
    "sareaen" : "Sanchong Dist.",
    "snaen" : "San-Chung Commercial and Industrial Vocational High School",
    "aren" : "Ln. 276, Zhongzheng N. Rd.",
    "bemp" : "15",
    "act" : "1"
  }, {
    "sno" : "1023",
    "sna" : "捷運新莊站(1號出口)",
    "tot" : "58",
    "sbi" : "8",
    "sarea" : "新莊區",
    "mday" : "20200526133944",
    "lat" : "25.036152 ",
    "lng" : "121.452069 ",
    "ar" : "中正路/中華路一段(鄰近新莊廟街)",
    "sareaen" : "Xinzhuang Dist.",
    "snaen" : "MRT Xinzhuang Sta. (Exit 1)",
    "aren" : "Zhongzheng Rd./Sec. 1, Zhonghua Rd.",
    "bemp" : "46",
    "act" : "1"
  }, {
    "sno" : "1024",
    "sna" : "原興廣場",
    "tot" : "52",
    "sbi" : "34",
    "sarea" : "汐止區",
    "mday" : "20200526133916",
    "lat" : "25.065042",
    "lng" : "121.633149",
    "ar" : "原興路/中興路150巷",
    "sareaen" : "Xizhi Dist.",
    "snaen" : "Yuan Xing Square",
    "aren" : "Yuanxing Rd./Ln. 150, Zhongxing Rd.",
    "bemp" : "17",
    "act" : "1"
  }, {
    "sno" : "1025",
    "sna" : "文化白雲公園",
    "tot" : "76",
    "sbi" : "13",
    "sarea" : "汐止區",
    "mday" : "20200526133919",
    "lat" : "25.056875",
    "lng" : "121.655207",
    "ar" : "水源路二段42號訖水源路二段68號",
    "sareaen" : "Xizhi Dist.",
    "snaen" : "Wenhua-Baiyun Park",
    "aren" : "No.42 to No.68, Sec. 2, Shuiyuan Rd.",
    "bemp" : "62",
    "act" : "1"
  }, {
    "sno" : "1026",
    "sna" : "秀山國小",
    "tot" : "62",
    "sbi" : "22",
    "sarea" : "中和區",
    "mday" : "20200526133926",
    "lat" : "24.996151 ",
    "lng" : "121.521988 ",
    "ar" : "更生街/自立路(西南側)",
    "sareaen" : "Zhonghe Dist.",
    "snaen" : "Xiushan Elementary School",
    "aren" : "Gengsheng St./Zili Rd.",
    "bemp" : "36",
    "act" : "1"
  }, {
    "sno" : "1027",
    "sna" : "捷運永安市場站",
    "tot" : "72",
    "sbi" : "27",
    "sarea" : "中和區",
    "mday" : "20200526133920",
    "lat" : "25.001013 ",
    "lng" : "121.511588 ",
    "ar" : "中安街/中和路378巷(東南側)",
    "sareaen" : "Zhonghe Dist.",
    "snaen" : "MRT Yongan Market Sta.",
    "aren" : "Zhong’an St./Ln. 378, Zhonghe Rd.",
    "bemp" : "45",
    "act" : "1"
  }, {
    "sno" : "1028",
    "sna" : "福和國中",
    "tot" : "66",
    "sbi" : "17",
    "sarea" : "永和區",
    "mday" : "20200526133941",
    "lat" : "25.005952",
    "lng" : "121.520930",
    "ar" : "永貞路/永亨路(東南側)",
    "sareaen" : "Yonghe Dist.",
    "snaen" : "Fuhe Junior High School",
    "aren" : "Yongzhen Rd./Yongheng Rd.",
    "bemp" : "49",
    "act" : "1"
  }, {
    "sno" : "1029",
    "sna" : "仁愛公園",
    "tot" : "60",
    "sbi" : "5",
    "sarea" : "永和區",
    "mday" : "20200526133926",
    "lat" : "25.009838",
    "lng" : "121.505825",
    "ar" : "仁愛路/保生路(鄰近世界宗教博物館)",
    "sareaen" : "Yonghe Dist.",
    "snaen" : "Renai Park",
    "aren" : "Ren’ai Rd./Baosheng Rd.",
    "bemp" : "52",
    "act" : "1"
  }, {
    "sno" : "1030",
    "sna" : "中和公園",
    "tot" : "46",
    "sbi" : "0",
    "sarea" : "中和區",
    "mday" : "20200526133932",
    "lat" : "25.000726 ",
    "lng" : "121.514350 ",
    "ar" : "安樂路/得和路(西南側)",
    "sareaen" : "Zhonghe Dist.",
    "snaen" : "Zhonghe Park",
    "aren" : "Anle Rd./Dehe Rd.",
    "bemp" : "43",
    "act" : "1"
  } ]